name,lat,lon,state
FPSO A, -22.945, -42.100, RJ
FPSO B, -23.114, -41.890, RJ
UTG Guamaré, -5.200, -36.310, RN
Refinaria RNEST, -8.289, -35.030, PE
Refinaria REDUC, -22.671, -43.281, RJ
Refinaria REPLAN, -22.547, -47.123, SP
Refinaria REVAP, -23.022, -45.591, SP
Terminal de Santos, -23.972, -46.296, SP
Terminal de Paranaguá, -25.516, -48.508, PR
Bacia do Solimões, -3.092, -60.017, AM
